,City,Cloudiness,Country,Date,Humidity,Lat,Lng,Max Temp,Wind Speed
0,Avarua,85,CK,1593866720,94,-21.21,-159.78,22.0,2.1
1,Punta Arenas,75,CL,1593866775,93,-53.15,-70.92,2.0,2.6
2,Tuktoyaktuk,100,CA,1593866776,97,69.45,-133.04,1.45,5.92
3,Piaçabuçu,29,BR,1593866776,66,-10.41,-36.43,26.77,3.99
4,Cape Town,40,ZA,1593866679,68,-33.93,18.42,18.33,5.1
5,Poum,100,NC,1593866777,74,-20.23,164.02,21.34,2.96
6,Ushuaia,75,AR,1593866778,86,-54.8,-68.3,-1.0,2.07
7,Wasilla,20,US,1593866778,87,61.58,-149.44,13.33,0.43
8,Hobart,75,AU,1593866649,81,-42.88,147.33,10.0,4.1
9,Lüderitz,0,NA,1593866779,31,-26.65,15.16,26.0,5.1
10,Dicabisagan,15,PH,1593866780,79,17.08,122.42,27.51,3.29
11,Leninskoye,38,RU,1593866780,91,47.94,132.62,20.7,3.04
12,Srednekolymsk,0,RU,1593866781,91,67.45,153.68,4.31,2.0
13,New Norfolk,99,AU,1593866781,80,-42.78,147.06,10.56,0.45
14,Chokurdakh,100,RU,1593866686,90,70.63,147.92,5.55,6.54
15,Nikolskoye,40,RU,1593866782,56,59.7,30.79,21.0,4.0
16,Rikitea,46,PF,1593866782,70,-23.12,-134.97,21.8,6.95
17,Kavieng,100,PG,1593866783,75,-2.57,150.8,28.04,1.56
18,Chānasma,99,IN,1593866783,49,23.72,72.12,36.42,2.41
19,Saint-Philippe,20,RE,1593866783,64,-21.36,55.77,23.0,8.7
20,Nome,90,US,1593866708,100,64.5,-165.41,7.0,3.1
21,Tambacounda,20,SN,1593866534,59,13.75,-13.76,32.0,2.1
22,San Juan,25,AR,1593866785,55,-31.54,-68.54,8.59,4.89
23,Hithadhoo,62,MV,1593866785,75,-0.6,73.08,29.45,6.0
24,Jamestown,1,US,1593866785,83,42.1,-79.24,22.22,2.1
25,Xique-Xique,0,BR,1593866786,52,-10.82,-42.73,26.55,7.89
26,Castro,0,BR,1593866786,68,-24.79,-50.01,11.99,2.2
27,Nuuk,90,GL,1593866677,93,64.18,-51.72,4.0,4.6
28,Qaanaaq,0,GL,1593866710,63,77.48,-69.36,6.17,1.2
29,Severo-Kuril'sk,85,RU,1593866691,87,50.68,156.12,9.02,3.54
30,Port Alfred,100,ZA,1593866789,72,-33.59,26.89,18.89,4.02
31,Bengkulu,59,ID,1593866589,85,-3.8,102.27,26.57,2.32
32,Flinders,0,AU,1593866790,66,-34.58,150.86,11.11,5.36
33,Auki,83,SB,1593866719,83,-8.77,160.7,25.44,1.87
34,Barrow,90,US,1593866791,80,71.29,-156.79,2.0,4.6
35,Tacuarembó,1,UY,1593866531,73,-31.73,-55.98,8.82,4.24
36,Chui,26,UY,1593866791,74,-33.7,-53.46,8.7,4.66
37,Tilichiki,100,RU,1593866792,99,60.47,166.1,7.14,3.51
38,Danielskuil,0,ZA,1593866792,22,-28.19,23.54,19.3,5.54
39,Dikson,100,RU,1593866793,54,73.51,80.55,11.94,5.51
40,George Town,20,MY,1593866793,79,5.41,100.34,30.0,2.1
41,Touros,40,BR,1593866793,78,-5.2,-35.46,27.0,4.1
42,Kelo,98,TD,1593866794,54,9.31,15.81,29.66,2.27
43,Bogotá,75,CO,1593866795,93,4.61,-74.08,12.0,3.1
44,Upernavik,100,GL,1593866795,89,72.79,-56.15,2.91,6.46
45,Ahipara,3,NZ,1593866796,76,-35.17,173.17,12.24,5.53
46,Maceió,20,BR,1593866796,78,-9.67,-35.74,26.0,1.5
47,Greenwood,1,US,1593866797,100,34.17,-82.12,23.33,0.68
48,Constitución,0,CL,1593866797,80,-35.33,-72.42,9.1,1.7
49,Turaif,0,SA,1593866798,13,31.67,38.66,42.0,9.3
50,Cabo San Lucas,75,MX,1593866798,69,22.89,-109.91,27.0,3.6
51,Médéa,20,DZ,1593866799,48,36.26,2.75,30.0,6.7
52,Hilo,90,US,1593866799,88,19.73,-155.09,23.0,2.6
53,Busselton,76,AU,1593866799,60,-33.65,115.33,15.56,4.87
54,Bellavista,75,PE,1593866800,100,-7.06,-76.59,23.0,0.22
55,Ninghai,100,CN,1593866800,99,29.29,121.42,26.11,1.34
56,Bluff,100,NZ,1593866720,96,-46.6,168.33,8.71,4.74
57,Verkh-Chebula,7,RU,1593866801,82,56.03,87.62,23.03,2.44
58,Atuona,4,PF,1593866802,76,-9.8,-139.03,26.15,9.97
59,Vaini,40,TO,1593866720,73,-21.2,-175.2,21.0,3.1
60,Puerto Ayora,96,EC,1593866803,94,-0.74,-90.35,20.56,1.79
61,Imbituba,0,BR,1593866803,71,-28.24,-48.67,14.0,5.7
62,Aklavik,90,CA,1593866804,93,68.22,-135.01,6.0,5.7
63,Mahébourg,75,MU,1593866777,83,-20.41,57.7,22.0,4.6
64,Kapaa,90,US,1593866805,94,22.08,-159.32,24.0,2.1
65,Masallātah,0,LY,1593866805,58,32.62,14.0,27.85,8.19
66,Khatanga,0,RU,1593866806,40,71.97,102.5,17.61,6.01
67,Najrān,75,SA,1593866806,24,17.49,44.13,38.0,4.1
68,Honiara,40,SB,1593866807,94,-9.43,159.95,24.0,2.1
69,Gushi,96,CN,1593866807,40,34.64,109.58,31.36,1.69
70,Butaritari,100,KI,1593866807,72,3.07,172.79,28.41,5.08
71,Esperance,94,AU,1593866721,66,-33.87,121.9,13.0,4.6
72,Tezu,55,IN,1593866808,77,27.92,96.17,27.48,0.57
73,Kodinsk,0,RU,1593866809,45,58.69,99.18,26.89,2.33
74,Labuhan,0,ID,1593866809,74,-6.88,112.21,26.43,4.95
75,Hasaki,75,JP,1593866664,78,35.73,140.83,27.0,6.2
76,Hirado,75,JP,1593866810,78,33.36,129.55,25.0,1.0
77,Yārāda,100,IN,1593866811,79,17.65,83.27,26.92,8.59
78,Menongue,0,AO,1593866811,18,-14.66,17.69,25.36,4.64
79,Virginia Beach,40,US,1593866812,74,36.85,-75.98,28.89,3.6
80,Half Moon Bay,1,US,1593866812,76,37.46,-122.43,13.0,1.6
81,Leningradskiy,93,RU,1593866813,68,69.38,178.42,6.65,2.06
82,Arraial do Cabo,75,BR,1593866813,82,-22.97,-42.03,20.0,1.5
83,Mataura,100,NZ,1593866814,95,-46.19,168.86,6.26,0.32
84,Minot,1,US,1593866714,88,48.23,-101.3,20.56,2.1
85,East London,19,ZA,1593866776,14,-33.02,27.91,26.0,8.7
86,Ust-Nera,96,RU,1593866815,65,64.57,143.2,9.12,3.34
87,Roald,0,NO,1593866674,47,62.58,6.13,16.11,6.2
88,Bolobo,63,CD,1593866816,39,-2.17,16.23,32.23,1.88
89,Wundanyi,81,KE,1593866817,54,-3.4,38.36,21.64,5.29
90,Albany,20,US,1593866817,91,42.6,-73.97,21.67,1.61
91,Bredasdorp,100,ZA,1593866817,52,-34.53,20.04,21.0,5.7
92,Seoul,40,KR,1593866244,60,37.57,126.98,24.0,1.8
93,São João da Barra,75,BR,1593866818,83,-21.64,-41.05,22.0,3.1
94,Departamento de Maldonado,93,UY,1593866819,71,-34.67,-54.92,11.11,3.6
95,Quesnel,90,CA,1593866819,93,53.0,-122.5,11.0,0.91
96,Along,96,IN,1593866819,86,28.17,94.77,25.66,0.28
97,Zhigansk,80,RU,1593866820,47,66.77,123.37,13.87,9.33
98,Lagoa,100,PT,1593866820,86,39.05,-27.98,20.42,2.15
99,Padang,100,ID,1593866821,79,-0.95,100.35,26.43,1.62
100,Taltal,20,CL,1593866821,60,-25.4,-70.48,15.37,0.15
101,Sergeevka,1,KZ,1593866822,65,53.88,67.42,22.03,3.08
102,Sault Ste. Marie,1,CA,1593866823,77,46.52,-84.33,21.0,0.54
103,Pestovo,59,RU,1593866823,46,58.59,35.8,24.28,2.72
104,Longyearbyen,75,SJ,1593866824,61,78.22,15.64,9.0,5.1
105,Lebyazh'ye,86,RU,1593866824,62,55.27,66.49,21.63,2.7
106,Ribeira Grande,40,PT,1593866825,83,38.52,-28.7,22.0,3.1
107,Tongchuanshi,73,CN,1593866825,60,35.08,109.09,24.47,3.44
108,Altamira,9,BR,1593866826,73,-3.2,-52.21,27.61,1.62
109,São Félix do Xingu,0,BR,1593866826,52,-6.64,-51.99,28.64,1.65
110,‘Āhuimanu,90,US,1593866827,78,21.44,-157.84,25.0,2.1
111,Ostrovnoy,0,RU,1593866686,44,68.05,39.51,18.74,4.92
112,Tura,100,IN,1593866828,94,25.52,90.22,25.8,2.87
113,Lebu,48,CL,1593866828,80,-37.62,-73.65,8.46,5.18
114,Apateu,40,RO,1593866828,61,46.62,21.78,26.11,3.6
115,Clyde River,90,CA,1593866829,87,70.47,-68.59,7.0,2.1
116,Kakonko,80,TZ,1593866829,33,-3.28,30.96,28.01,2.42
117,Bac Lieu,93,VN,1593866642,74,9.29,105.72,26.7,2.89
118,Thompson,20,CA,1593866709,93,55.74,-97.86,15.0,1.0
119,Whyalla,40,AU,1593866830,93,-33.03,137.58,9.0,3.1
120,Carnarvon,0,AU,1593866698,72,-24.87,113.63,18.0,4.1
121,Katangli,98,RU,1593866831,90,51.71,143.23,12.6,2.6
122,Cockburn Town,22,TC,1593866832,84,21.46,-71.14,27.92,5.6
123,Lakes Entrance,97,AU,1593866832,87,-37.88,147.98,11.11,0.89
124,Kongoussi,13,BF,1593866833,34,13.33,-1.53,36.62,5.72
125,Pevek,88,RU,1593866833,57,69.7,170.31,8.76,5.58
126,Olafsvik,2,IS,1593866833,69,64.89,-23.71,10.34,2.01
127,Cherskiy,100,RU,1593866834,50,68.75,161.3,11.53,5.61
128,Nikolayevka,24,RU,1593866834,53,53.13,47.2,29.65,3.93
129,Ponta do Sol,8,PT,1593866835,61,32.67,-17.1,22.78,1.96
130,Erfurt,94,DE,1593866835,43,50.98,11.03,23.0,7.2
131,Mukhen,5,RU,1593866835,92,48.1,136.1,19.14,2.48
132,Taft,20,IR,1593866836,13,31.75,54.21,39.0,3.1
133,Chabahar,17,IR,1593866836,75,25.29,60.64,31.42,7.37
134,Ixtapa,40,MX,1593866837,94,20.7,-105.2,26.0,1.52
135,Khasan,100,RU,1593866838,84,42.43,130.64,17.43,2.29
136,Bekkevoort,100,BE,1593866838,72,50.93,4.97,20.56,5.1
137,Berlevåg,100,NO,1593866839,67,70.86,29.09,12.29,6.01
138,Vaitape,81,PF,1593866839,76,-16.52,-151.75,27.09,5.2
139,Ust'-Charyshskaya Pristan',1,RU,1593866840,65,52.39,83.66,22.83,3.0
140,Yellowknife,75,CA,1593866586,100,62.46,-114.35,13.89,3.6
141,Redlands,1,US,1593866841,59,34.06,-117.18,19.0,0.19
142,Rantepao,100,ID,1593866842,91,-2.97,119.9,19.62,0.52
143,Hualmay,4,PE,1593866842,76,-11.1,-77.61,16.52,2.51
144,Bethel,75,US,1593866842,88,41.37,-73.41,20.0,3.6
145,Şile,0,TR,1593866843,66,41.18,29.61,28.89,2.24
146,Bambous Virieux,75,MU,1593866844,83,-20.34,57.76,23.33,4.6
147,Novoagansk,100,RU,1593866844,78,61.94,76.66,18.71,3.02
148,Vestmannaeyjar,40,IS,1593866844,71,63.44,-20.27,11.0,9.8
149,Marzuq,80,YE,1593866845,27,14.4,46.47,34.02,6.67
150,Qaqortoq,5,GL,1593866845,50,60.72,-46.03,13.0,3.6
151,Namatanai,100,PG,1593866846,80,-3.67,152.43,26.78,5.12
152,Saint Paul Harbor,1,US,1593866846,68,57.79,-152.41,18.0,5.7
153,Saldanha,100,ZA,1593866847,63,-33.01,17.94,18.0,1.0
154,Labuan,75,MY,1593866847,83,5.28,115.24,28.0,1.0
155,De Aar,9,ZA,1593866848,23,-30.65,24.01,19.16,6.76
156,Port-Gentil,90,GA,1593866706,78,-0.72,8.78,26.0,4.6
157,Montreux,32,CH,1593866850,67,46.43,6.91,21.11,0.89
158,Kismayo,1,SO,1593866850,70,-0.36,42.55,27.11,9.08
159,Alugan,100,PH,1593866852,81,12.22,125.48,27.89,3.36
160,Vardø,40,NO,1593866853,62,70.37,31.11,15.0,3.6
161,Paso de Patria,2,AR,1593866853,76,-27.25,-58.55,11.0,3.1
162,Adrar,0,MR,1593866854,6,20.5,-10.07,44.17,4.88
163,Caravelas,2,BR,1593866854,76,-17.71,-39.25,25.1,2.36
164,Balancán,97,MX,1593866855,91,17.8,-91.53,24.03,4.05
165,Taoudenni,1,ML,1593866855,4,22.68,-3.98,49.21,9.49
166,San Cristobal,40,VE,1593866856,65,7.77,-72.22,27.0,5.1
167,São Filipe,46,CV,1593866856,80,14.9,-24.5,24.53,5.48
168,Cidreira,0,BR,1593866857,60,-30.18,-50.21,11.73,2.58
169,Grindavik,75,IS,1593866859,66,63.84,-22.43,11.0,2.1
170,Laguna,1,US,1593866859,67,38.42,-121.42,15.0,1.5
171,Geraldton,0,AU,1593866600,82,-28.77,114.6,14.0,3.64
172,Ocós,75,GT,1593866860,100,14.51,-92.19,24.0,2.68
173,Camacha,75,PT,1593866862,60,33.08,-16.33,21.0,7.7
174,Moïssala,89,TD,1593866862,56,8.34,17.77,30.95,1.43
175,Kinsale,75,IE,1593866863,82,51.71,-8.53,21.11,7.2
176,Verkhnyaya Tula,20,RU,1593866863,44,54.88,82.78,26.0,3.0
177,Santa Luzia,31,BR,1593866864,77,-19.77,-43.85,20.0,5.1
178,Hong Kong,100,HK,1593866595,78,22.29,114.16,30.0,5.09
179,Alice Springs,100,AU,1593866720,57,-23.7,133.88,11.11,2.6
180,Parga,20,GR,1593866865,70,39.28,20.4,32.0,4.6
181,Saskylakh,0,RU,1593866838,57,71.92,114.08,10.78,5.6
182,Souillac,75,MU,1593866866,83,-20.52,57.52,22.0,4.6
183,Harboøre,100,DK,1593866867,80,56.62,8.18,15.0,3.0
184,Asbury Park,90,US,1593866868,100,40.22,-74.01,22.22,3.6
185,Villazón,0,BO,1593866718,40,-22.09,-65.59,5.4,2.99
186,Ponta Delgada,75,PT,1593866868,83,37.73,-25.67,21.0,3.1
187,Torbay,75,CA,1593866869,76,47.67,-52.73,9.44,4.6
188,Horsham,75,GB,1593866869,88,51.06,-0.33,18.89,6.2
189,Athabasca,100,CA,1593866710,91,54.72,-113.29,11.52,3.58
190,Valdivia,40,CL,1593866870,93,-39.81,-73.25,7.0,4.6
191,Zliten,0,LY,1593866870,64,32.47,14.57,27.96,9.38
192,Plyussa,42,RU,1593866871,42,58.43,29.37,23.31,5.16
193,The Pas,75,CA,1593866871,77,53.83,-101.25,18.0,1.5
194,Sungai Besar,20,MY,1593866872,83,3.67,100.99,29.0,1.5
195,Nanortalik,61,GL,1593866677,86,60.14,-45.24,5.24,4.16
196,La Ronge,5,CA,1593866873,87,55.1,-105.28,15.0,1.0
197,Port Blair,95,IN,1593866873,80,11.67,92.75,28.35,6.58
198,Kiruna,96,SE,1593866874,62,67.86,20.23,11.0,3.1
199,Manaure,20,CO,1593866875,70,11.78,-72.44,29.0,7.7
200,Pak Phanang,20,TH,1593866875,84,8.35,100.2,30.0,2.1
201,Sokoto,82,NG,1593866620,44,13.06,5.24,34.05,6.21
202,Hermanus,11,ZA,1593866708,61,-34.42,19.23,20.56,0.89
203,Isangel,75,VU,1593866719,83,-19.55,169.27,23.0,2.6
204,Meulaboh,50,ID,1593866786,81,4.14,96.13,27.13,1.42
205,Playas,98,EC,1593866878,83,-2.63,-80.38,21.68,2.38
206,Vostok,8,RU,1593866878,95,46.49,135.88,15.51,1.99
207,Sungai Penuh,100,ID,1593866721,95,-2.08,101.38,19.1,1.61
208,Mugur-Aksy,60,RU,1593866879,41,50.35,90.5,17.36,1.41
209,Saint George,1,US,1593866880,43,37.1,-113.58,23.0,2.6
210,Tamazunchale,1,MX,1593866880,85,21.27,-98.78,21.68,1.39
211,Araouane,0,ML,1593866881,5,18.9,-3.53,45.46,7.82
212,Mount Gambier,90,AU,1593866882,100,-37.83,140.77,10.0,3.1
213,Ambato,75,EC,1593866882,93,-1.25,-78.62,9.0,1.5
214,Lensk,100,RU,1593866687,48,60.73,114.93,15.85,2.5
215,Palkino,100,RU,1593866883,38,57.54,28.01,24.0,7.0
216,Praia,20,CV,1593866680,66,14.92,-23.51,29.0,4.1
217,Montepuez,0,MZ,1593866665,31,-13.13,39.0,27.56,4.42
218,Mora,20,CM,1593866667,58,11.05,14.14,30.0,6.7
219,Faanui,76,PF,1593866720,77,-16.48,-151.75,26.62,5.17
220,Henties Bay,0,NA,1593866887,23,-22.12,14.28,25.85,3.73
221,Hofn,75,IS,1593866887,57,64.25,-15.21,10.0,5.7
222,Calvinia,0,ZA,1593866708,23,-31.47,19.78,19.62,4.79
223,Springbok,0,ZA,1593866888,20,-29.66,17.89,22.1,2.72
224,Murgab,0,TM,1593866888,9,37.5,61.97,34.0,5.1
225,Faya,75,SA,1593866889,16,18.39,42.45,30.0,8.2
226,Bathsheba,20,BB,1593866889,66,13.22,-59.52,29.0,9.8
227,Putat,75,PH,1593866890,78,10.79,123.85,28.0,1.5
228,Pitimbu,20,BR,1593866890,78,-7.47,-34.81,27.0,4.1
229,Casa Nova,0,BR,1593866890,65,-9.42,-41.13,25.0,6.7
230,Sandnessjøen,20,NO,1593866891,44,66.02,12.63,15.0,3.1
231,Gachsaran,0,IR,1593866891,8,30.36,50.8,42.0,4.1
232,Kyren,95,RU,1593866892,74,51.68,102.14,18.63,1.19
233,El Alto,64,PE,1593866892,73,-4.27,-81.21,19.47,4.01
234,Rocha,81,UY,1593866718,73,-34.48,-54.33,8.87,5.48
235,Buraidah,0,SA,1593866893,13,26.33,43.98,45.0,3.1
236,Mar del Plata,100,AR,1593866894,93,-38.0,-57.56,9.44,2.6
237,Acapulco de Juárez,75,MX,1593866894,88,16.86,-99.89,25.0,1.79
238,Port-Cartier,75,CA,1593866894,77,50.03,-66.87,16.67,3.1
239,Aykhal,90,RU,1593866895,87,66.0,111.5,8.0,4.0
240,Shishou,93,CN,1593866895,96,29.72,112.42,25.25,1.88
241,Bonfim,13,BR,1593866896,72,3.08,-59.95,27.66,2.61
242,Bilokurakyne,0,UA,1593866897,34,49.53,38.73,32.63,4.26
243,Broome,75,US,1593866898,73,42.25,-75.83,22.0,1.24
244,Haines Junction,3,CA,1593866711,65,60.75,-137.51,9.74,0.71
245,College,40,US,1593866900,93,64.86,-147.8,12.0,0.95
246,Rørvik,4,NO,1593866900,72,64.86,11.24,11.44,6.46
247,Rock Springs,1,US,1593866679,31,41.59,-109.2,16.0,2.1
248,Talca,90,CL,1593866901,100,-35.43,-71.67,10.56,1.0
249,Maţāy,0,EG,1593866902,9,28.42,30.78,40.71,5.63
250,Khovd,11,MN,1593866902,27,48.01,91.64,24.3,3.99
251,Abalak,23,RU,1593866902,50,58.13,68.59,23.01,2.43
252,Kiryat Gat,0,IL,1593866903,48,31.61,34.76,32.22,5.1
253,Bondoukou,70,CI,1593866903,68,8.03,-2.8,28.26,4.46
254,Blythe,1,US,1593866722,28,33.61,-114.6,28.0,2.1
255,Westport,75,US,1593866883,77,41.14,-73.36,21.67,4.1
256,Umm Hājar,44,TD,1593866906,32,13.3,19.7,35.92,2.79
257,Eureka,8,US,1593866715,100,40.8,-124.16,9.44,1.04
258,Dingzhou,90,CN,1593866907,83,38.51,115.0,26.0,1.0
259,Luzon,97,PH,1593866907,69,6.52,126.09,28.55,2.71
260,Nelson Bay,0,AU,1593866907,66,-32.72,152.15,10.56,8.2
261,Kasongo,0,CD,1593866908,23,-4.45,26.67,35.2,3.14
262,Nabire,0,ID,1593866595,87,-3.37,135.48,24.68,1.44
263,Pisco,90,PE,1593866909,87,-13.7,-76.22,15.0,2.1
264,Champerico,90,GT,1593866909,94,14.3,-91.92,24.0,2.4
265,Ancud,75,CL,1593866910,100,-41.87,-73.82,6.67,4.1
266,Kruisfontein,100,ZA,1593866823,56,-34.0,24.73,16.87,6.02
267,Port Hardy,5,CA,1593866709,89,50.7,-127.42,10.33,1.13
268,Kutum,37,SD,1593866912,23,14.2,24.67,33.93,5.3
269,Riyadh,0,SA,1593866913,13,24.69,46.72,46.0,2.1
270,Yeppoon,0,AU,1593866913,50,-23.13,150.73,11.0,4.84
271,Kharp,44,RU,1593866913,40,66.8,65.81,22.88,2.4
272,Jiuquan,0,CN,1593866701,15,39.74,98.52,27.85,3.22
273,Pinhão,0,BR,1593866914,57,-25.7,-51.66,11.97,1.8
274,Atbasar,43,KZ,1593866915,51,51.8,68.33,22.19,4.84
275,Sechura,81,PE,1593866915,76,-5.56,-80.82,18.39,3.98
276,Solok,100,ID,1593866916,87,-0.79,100.66,23.0,0.35
277,Tiksi,100,RU,1593866916,96,71.69,128.87,1.15,4.84
278,Kostomuksha,99,RU,1593866742,50,64.57,30.58,17.97,4.37
279,Monster,100,NL,1593866678,96,52.03,4.17,17.22,4.92
280,Talant,0,FR,1593866918,36,47.34,5.01,25.0,4.1
281,Surgut,26,RU,1593866830,36,61.25,73.42,24.0,6.0
282,Barra de Tecoanapa,0,MX,1593866919,82,16.52,-98.75,24.9,1.52
283,Zyryanka,16,RU,1593866920,81,65.75,150.85,4.91,1.09
284,Santa Cruz del Sur,40,CU,1593866843,72,20.71,-78.0,28.58,1.59
285,Suntar,73,RU,1593866687,76,62.14,117.63,13.98,1.89
286,Micheweni,100,TZ,1593866921,80,-4.97,39.83,24.6,7.71
287,Villanueva de Córdoba,0,ES,1593866922,23,38.32,-4.63,35.0,1.0
288,Challans,100,FR,1593866922,85,46.84,-1.87,18.89,1.79
289,Nouadhibou,0,MR,1593866705,57,20.93,-17.03,27.0,7.2
290,Kavaratti,67,IN,1593866696,80,10.57,72.64,28.69,7.88
291,Okhotsk,91,RU,1593866690,87,59.38,143.3,10.09,1.91
292,Ambulu,84,ID,1593866924,85,-8.35,113.61,23.92,2.15
293,Egvekinot,83,RU,1593866925,88,66.32,-179.17,5.25,1.22
294,Mana,100,GF,1593866925,87,5.66,-53.78,26.11,1.49
295,Fuyang,2,CN,1593866914,88,32.9,115.82,23.94,2.82
296,Rey Bouba,54,CM,1593866926,57,8.67,14.18,32.37,0.49
297,Reftinskiy,87,RU,1593866927,41,57.09,61.68,25.0,3.0
298,Provideniya,100,RU,1593866928,80,64.38,-173.3,7.97,3.49
299,Snyder,1,US,1593866928,56,32.72,-100.92,22.0,1.5
300,Lorengau,100,PG,1593866929,76,-2.02,147.27,28.1,2.88
301,Yumen,91,CN,1593866930,12,40.28,97.2,30.13,4.81
302,Itarema,3,BR,1593866930,69,-2.92,-39.92,28.26,6.72
303,Porto Velho,40,BR,1593866718,94,-8.76,-63.9,24.0,1.0
304,Nāndgaon,100,IN,1593866775,70,20.32,74.65,28.58,8.51
305,Talcahuano,0,CL,1593866933,100,-36.72,-73.12,6.0,2.1
306,Tabuk,63,PH,1593866933,84,17.42,121.44,24.64,2.0
307,New Berlin,1,US,1593866934,73,42.98,-88.11,24.44,3.1
308,Toyooka,75,JP,1593866934,94,35.53,134.83,21.0,3.1
309,Beloha,42,MG,1593866935,61,-25.17,45.05,22.06,5.82
310,Vao,61,NC,1593866935,77,-22.67,167.48,21.11,7.46
311,Goderich,100,CA,1593866936,86,43.75,-81.72,21.67,0.89
312,Tateyama,100,JP,1593866936,100,34.98,139.87,25.56,4.92
313,Hambantota,20,LK,1593866696,79,6.12,81.12,29.0,6.2
314,Pizarro,100,CO,1593866937,89,4.95,-77.37,24.85,3.07
315,Palmerston,100,AU,1593866938,31,-12.49,130.98,26.0,4.6
316,Dongsheng,0,CN,1593866701,60,39.82,109.98,18.13,3.51
317,Calabozo,55,VE,1593866940,81,8.92,-67.43,26.19,4.21
318,Motygino,90,RU,1593866940,89,58.18,94.76,21.74,1.55
319,Aksu,100,CN,1593866941,12,41.12,80.26,33.03,2.05
320,Maryville,40,US,1593866942,78,35.76,-83.97,23.89,2.1
321,Samarai,100,PG,1593866942,82,-10.62,150.67,25.5,7.99
322,Nishihara,75,JP,1593866943,88,26.18,127.76,28.0,4.6
323,Vanimo,29,PG,1593866943,77,-2.67,141.3,26.76,0.61
324,Praia da Vitória,75,PT,1593866944,73,38.73,-27.07,23.0,0.67
325,Tasiilaq,75,GL,1593866677,45,65.61,-37.64,9.0,3.6
326,Gua Musang,84,MY,1593866945,89,4.88,101.96,24.58,0.24
327,Takoradze,65,GH,1593866945,82,4.88,-1.76,26.3,6.74
328,Buala,87,SB,1593866946,82,-8.14,159.59,27.12,3.7
329,Port Augusta,40,AU,1593866947,93,-32.5,137.77,9.0,3.1
330,Krasnosel'kup,32,RU,1593866686,74,65.7,82.47,23.66,5.47
331,Yar-Sale,23,RU,1593866948,48,66.83,70.83,21.4,2.25
332,High Rock,75,BS,1593866948,88,26.62,-78.28,27.0,1.0
333,Bandarbeyla,25,SO,1593866949,40,9.49,50.81,33.11,12.6
334,Ballina,0,AU,1593866950,61,-28.87,153.57,10.0,3.1
335,Airai,43,TL,1593866950,100,-8.93,125.41,13.53,2.5
336,Kaitangata,100,NZ,1593866951,87,-46.28,169.85,6.11,2.24
337,Jacareacanga,45,BR,1593866952,60,-6.22,-57.75,29.03,0.7
338,Werda,0,BW,1593866952,17,-25.27,23.28,23.38,1.71
339,Chambersburg,0,US,1593866747,93,39.94,-77.66,23.89,1.28
340,Mitsamiouli,75,KM,1593866954,65,-11.38,43.28,27.0,7.7
341,San Policarpo,100,PH,1593866919,80,12.18,125.51,28.14,4.02
342,Sterling,75,US,1593866953,61,39.01,-77.43,27.0,2.6
343,Khromtau,0,KZ,1593866956,36,50.25,58.43,27.42,5.1
344,Uglich,100,RU,1593866956,74,57.53,38.33,22.7,2.77
345,Auburn,75,US,1593866957,87,47.31,-122.23,13.33,0.69
346,Necochea,100,AR,1593866957,99,-38.55,-58.74,5.0,1.79
347,Makakilo City,90,US,1593866959,83,21.35,-158.09,24.0,1.74
348,Emerald,0,AU,1593866720,54,-23.53,148.17,12.0,3.6
349,Los Llanos de Aridane,75,ES,1593866960,61,28.66,-17.92,25.0,8.2
350,Provost,0,CA,1593866708,70,52.35,-110.27,14.79,2.61
351,Sanok,52,PL,1593866961,61,49.56,22.21,25.56,0.89
352,Hefei,20,CN,1593866962,83,31.86,117.28,26.0,2.0
353,Moses Lake,40,US,1593866962,33,47.13,-119.28,17.0,3.6
354,Safi,0,MA,1593866704,63,32.3,-9.24,23.92,9.79
355,Saint Anthony,1,US,1593866964,88,45.02,-93.22,24.44,1.21
356,Ubalá,100,CO,1593866965,94,4.75,-72.54,22.6,2.41
357,São Miguel do Araguaia,0,BR,1593866965,41,-13.28,-50.16,27.95,2.09
358,Linxia Chengguanzhen,100,CN,1593866729,45,35.6,103.21,18.53,2.18
359,Tsaratanana,100,MG,1593866966,50,-16.78,47.65,25.39,5.33
360,Guangzhou,75,CN,1593866820,79,23.12,113.25,32.78,1.0
361,Kamaishi,94,JP,1593866967,89,39.27,141.88,17.35,1.0
362,Brodokalmak,40,RU,1593866967,36,55.57,62.08,26.0,4.0
363,Toora-Khem,100,RU,1593866967,57,52.47,96.11,21.15,2.35
364,Pangnirtung,0,CA,1593866714,52,66.15,-65.71,10.93,2.11
365,Chicama,83,PE,1593866968,74,-7.84,-79.15,18.17,2.17
366,Agüimes,20,ES,1593866969,57,27.91,-15.45,25.0,14.9
367,Sitka,90,US,1593866969,93,57.05,-135.33,12.0,2.6
368,Vila Franca do Campo,75,PT,1593866970,83,37.72,-25.43,21.0,3.1
369,Atar,0,MR,1593866705,24,20.52,-13.05,40.0,4.14
370,Makkah al Mukarramah,0,SA,1593866694,9,21.43,39.83,42.53,12.87
371,Progreso,75,MX,1593866716,94,21.28,-89.67,28.89,2.0
372,Kannur,100,IN,1593866753,86,11.87,75.36,26.62,1.89
373,Abu Dhabi,21,AE,1593866972,34,24.47,54.37,43.0,3.6
374,Clarence Town,0,AU,1593866972,66,-32.58,151.78,10.56,8.2
375,Plettenberg Bay,97,ZA,1593866947,58,-34.05,23.37,17.45,3.13
376,Stettler,59,CA,1593866973,92,52.32,-112.72,10.79,5.61
377,Batemans Bay,1,AU,1593866973,88,-35.72,150.18,5.0,3.46
378,Marquard,0,ZA,1593866974,23,-28.66,27.43,17.72,4.32
379,Tupi Paulista,0,BR,1593866974,57,-21.38,-51.57,18.5,4.26
380,Norman Wells,75,CA,1593866975,93,65.28,-126.83,10.0,2.1
381,Te Anau,100,NZ,1593866975,92,-45.42,167.72,6.86,1.6
382,Kieta,100,PG,1593866975,77,-6.22,155.63,26.64,2.68
383,Taiyuan,0,CN,1593866976,72,37.87,112.56,20.0,1.0
384,Zhuanghe,0,CN,1593866976,78,39.7,122.99,23.33,3.48
385,Inhambane,40,MZ,1593866977,57,-23.86,35.38,25.0,4.1
386,Grants,90,US,1593866813,58,35.15,-107.85,15.0,1.12
387,Ilovlya,0,RU,1593866978,17,49.3,43.98,35.0,4.0
388,Dongying,100,CN,1593866979,52,37.46,118.49,28.5,3.49
389,Panabá,99,MX,1593866979,85,21.28,-88.27,25.71,1.29
390,Saint-François,0,FR,1593866979,43,46.42,3.91,23.0,3.1
391,Sidi Ali,0,DZ,1593866980,40,36.1,0.42,29.3,5.67
392,Moyale,87,KE,1593866890,47,3.52,39.06,25.55,5.76
393,Marysville,90,US,1593866981,100,48.05,-122.18,12.0,0.53
394,Vallenar,1,CL,1593866981,71,-28.57,-70.76,13.62,0.29
395,Manono,30,CD,1593866981,19,-7.3,27.42,33.57,3.55
396,Robertsport,100,LR,1593866982,85,6.75,-11.37,25.5,5.31
397,Kaoma,0,ZM,1593866982,22,-14.78,24.8,26.17,4.47
398,Madocsa,75,HU,1593866983,54,46.69,18.96,28.33,3.1
399,Eilat,0,IL,1593866693,29,29.56,34.95,40.0,2.6
400,Gornopravdinsk,59,RU,1593866984,45,60.05,69.9,23.39,2.66
401,Sayyan,100,YE,1593866985,42,15.17,44.32,20.79,4.92
402,Bafoulabé,0,ML,1593866985,39,13.81,-10.83,36.76,4.52
403,Kahului,1,US,1593866986,73,20.89,-156.47,24.0,2.1
404,Sinnamary,3,GF,1593866986,83,5.38,-52.95,26.81,1.0
405,Beringovskiy,100,RU,1593866986,96,63.05,179.32,6.2,7.04
406,Don Luan,100,VN,1593866987,90,11.53,106.92,24.95,0.82
407,Tanout,0,NE,1593866987,24,14.97,8.89,36.76,5.11
408,Dingle,100,PH,1593866988,87,11.0,122.67,25.5,0.65
409,Esim,100,GH,1593866988,81,4.87,-2.24,26.38,6.58
410,Mezen',100,RU,1593866989,39,65.85,44.24,20.73,3.93
411,Muisne,100,EC,1593866989,87,0.6,-80.03,23.87,4.06
412,Rupert,1,US,1593866990,76,42.62,-113.68,13.0,1.5
413,Siayan,92,PH,1593866991,85,8.27,123.1,24.84,0.88
414,Tautira,75,PF,1593866992,83,-17.73,-149.15,25.0,4.1
415,Teknāf,100,BD,1593866992,85,20.86,92.31,28.01,6.26
416,Pandan,100,PH,1593866992,77,14.05,124.17,27.57,2.49
417,Lompoc,0,US,1593866993,93,34.64,-120.46,13.33,1.79
418,Santa Cruz,0,MA,1593866745,51,30.42,-9.6,29.0,5.7
419,Sur,100,OM,1593866960,47,22.57,59.53,35.89,2.72
420,Lukh,100,RU,1593866994,83,57.01,42.26,24.19,2.87
421,João Pinheiro,0,BR,1593866994,49,-17.74,-46.17,24.21,3.45
422,Opuwo,0,NA,1593866995,17,-18.06,13.84,25.95,8.72
423,Puerto Escondido,75,MX,1593866996,78,15.85,-97.07,23.0,3.1
424,Hervey Bay,4,AU,1593866997,53,-25.3,152.85,13.33,1.79
425,Lima,90,PE,1593867000,87,-12.04,-77.03,15.0,2.1
426,Mount Isa,100,AU,1593866720,29,-20.73,139.5,16.0,7.2
427,Ialibu,100,PG,1593867001,98,-6.28,143.99,13.47,0.54
428,Aripuanã,0,BR,1593867001,55,-9.17,-60.63,28.3,0.57
429,Rindal,50,NO,1593867002,50,63.06,9.21,14.0,5.1
430,Imeni Poliny Osipenko,100,RU,1593867002,92,52.42,136.49,15.92,0.92
431,Quatre Cocos,75,MU,1593867003,83,-20.21,57.76,23.33,4.6
432,Solnechnyy,87,RU,1593867003,81,50.72,136.63,17.76,1.91
433,Calverton,1,US,1593867004,65,39.06,-76.94,27.22,2.6
434,Grenville,75,GD,1593867004,74,12.12,-61.62,29.0,6.2
435,Chifeng,39,CN,1593867005,61,42.27,118.96,22.98,5.1
436,Meadow Lake,40,US,1593867005,53,34.8,-106.54,22.0,6.7
437,Saint-Pierre,20,RE,1593867005,64,-21.34,55.48,23.0,8.7
438,Hamilton,1,US,1593867005,88,39.18,-84.53,25.56,1.49
439,Codrington,22,AU,1593867006,87,-38.27,141.97,10.23,4.99
440,Wanning,100,CN,1593867007,88,18.8,110.4,27.79,3.39
441,Sarandi,0,BR,1593867007,68,-23.44,-51.87,15.52,3.28
442,Port Hedland,0,AU,1593867008,60,-20.32,118.57,22.0,2.1
443,Gusev,4,RU,1593867008,66,54.59,22.2,22.86,5.45
444,Alofi,100,NU,1593867008,94,-19.06,-169.92,22.0,6.2
445,Zilupe,3,LV,1593867009,44,56.39,28.12,23.63,4.22
446,Mackay,0,AU,1593866720,82,-21.15,149.2,13.0,3.1
447,Klaksvík,100,FO,1593867010,81,62.23,-6.59,10.0,6.2
448,Lys'va,100,RU,1593867010,52,58.11,57.81,23.96,2.29
449,Čaška,20,MK,1593867010,42,41.65,21.66,30.0,3.6
450,Markova,75,UA,1593867011,88,48.68,24.41,22.0,2.0
451,Kapiri Mposhi,0,ZM,1593867011,27,-13.97,28.68,22.26,4.97
452,Evensk,60,RU,1593867012,69,61.95,159.23,10.54,2.26
453,Kargopol',56,RU,1593867012,47,61.51,38.95,22.83,2.5
454,San Patricio,75,MX,1593867012,74,19.22,-104.7,26.0,1.31
455,Moerai,100,PF,1593867013,88,-22.43,-151.33,20.88,10.78
456,Camocim,0,BR,1593867013,63,-2.9,-40.84,29.09,5.91
457,Miyang,100,CN,1593867014,85,24.4,103.44,21.57,1.31
458,Hoquiam,90,US,1593867014,100,46.98,-123.89,11.67,2.6
459,Cururupu,0,BR,1593867015,76,-1.83,-44.87,28.38,2.95
460,Ilulissat,90,GL,1593867015,86,69.22,-51.1,5.0,2.1
461,Pārsābād,0,IR,1593867016,23,39.65,47.92,35.0,4.1
462,Staryy Nadym,0,RU,1593867016,58,65.61,72.68,19.96,7.68
463,Borogontsy,29,RU,1593867017,65,62.67,131.17,13.59,1.87
464,Laas,20,IT,1593867017,45,46.62,10.7,25.0,3.6
465,Awjilah,0,LY,1593867017,15,29.11,21.29,37.81,3.42
466,Coquimbo,36,CL,1593867018,93,-29.95,-71.34,8.0,5.7
467,Mach,0,PK,1593866956,7,29.86,67.33,40.59,1.24
468,Farīdpur,75,BD,1593867019,70,23.6,89.83,30.0,3.1
469,Talnakh,90,RU,1593866830,59,69.49,88.4,19.0,3.0
470,Marrakesh,0,MA,1593867019,34,31.63,-8.01,34.0,2.1
471,Alta Floresta,0,BR,1593867020,48,-9.88,-56.09,26.78,2.05
472,Murud,100,IN,1593867020,84,18.33,72.97,26.36,6.44
473,Qasigiannguit,90,GL,1593867021,86,68.82,-51.19,5.0,2.1
474,Caceres,0,ES,1593867021,15,39.52,-6.37,33.89,3.13
475,Poso,100,ID,1593866847,84,-1.4,120.75,24.69,2.07
476,Murtino,1,MK,1593867022,46,41.42,22.73,33.89,2.92
477,Gaborone,0,BW,1593867023,28,-24.65,25.91,21.0,2.1
478,Malbork,50,PL,1593867024,50,54.04,19.03,24.0,6.7
479,Pojuca,40,BR,1593867024,74,-12.42,-38.33,27.0,2.1
480,Marshall,1,US,1593867025,88,34.38,-86.33,26.11,1.03
481,Portoferraio,5,IT,1593867025,69,42.81,10.31,26.0,8.7
482,Toamasina,75,MG,1593867026,94,-18.17,49.38,22.0,4.1
483,Rawson,78,AR,1593867026,80,-43.3,-65.1,5.95,6.69
484,Gadwāl,100,IN,1593867027,85,16.23,77.8,23.72,7.65
485,Orsha,75,BY,1593867027,60,54.52,30.41,25.0,5.0
486,Esna,0,EG,1593867028,7,25.29,32.55,42.02,6.19
487,Darhan,0,MN,1593867000,49,49.49,105.92,23.2,1.96
488,Sioux Lookout,40,CA,1593867029,93,50.1,-91.92,19.0,1.74
489,Hastings,75,GB,1593867029,100,50.86,0.57,17.22,12.9
490,Kichera,0,RU,1593867030,44,55.94,110.1,19.83,3.34
491,Grand Gaube,93,MU,1593867031,71,-20.01,57.66,23.33,3.13
492,Avera,1,US,1593867031,94,33.19,-82.53,26.0,1.08
493,Mossamedes,20,AO,1593867031,69,-15.2,12.15,25.0,5.1
494,Yulara,87,AU,1593867032,48,-25.24,130.99,14.0,3.1
495,Fortuna,0,US,1593867032,100,40.6,-124.16,8.33,2.1
496,Utiel,0,ES,1593867033,23,39.57,-1.2,33.89,2.78
497,Taylorville,90,US,1593867033,88,39.55,-89.29,23.33,2.43
498,Baoro,100,CF,1593867033,82,5.67,15.97,25.24,2.15
499,Morón,95,AR,1593867034,87,-34.65,-58.62,10.56,3.03
500,San Quintín,0,MX,1593867036,89,30.48,-115.95,18.29,3.28
501,Belomorsk,88,RU,1593867036,49,64.52,34.77,20.97,1.32
502,Salalah,75,OM,1593867036,83,17.02,54.09,29.0,6.2
503,Eyl,18,SO,1593867037,35,7.98,49.82,34.09,12.72
504,Barreiras,3,BR,1593867037,37,-12.15,-44.99,29.52,2.85
505,Arlit,0,NE,1593867038,6,18.74,7.39,42.29,6.43
506,Bakonycsernye,25,HU,1593867038,36,47.32,18.08,27.0,5.1
507,Örnsköldsvik,47,SE,1593867039,81,63.29,18.72,12.0,2.6
508,Amarkantak,93,IN,1593867039,92,22.67,81.75,23.56,0.61
509,Coyhaique,75,CL,1593867039,86,-45.58,-72.07,-1.0,2.1
510,Yerbogachën,0,RU,1593867040,59,61.28,108.01,14.74,1.69
511,Mandalgovi,100,MN,1593867040,50,45.76,106.27,19.66,3.17
512,Tuatapere,100,NZ,1593867041,91,-46.13,167.68,8.56,2.78
513,Laiyang,2,CN,1593867002,76,36.98,120.71,22.78,3.42
514,Sørland,75,NO,1593867042,58,67.67,12.69,13.0,7.2
515,San Fernando,75,PH,1593866813,94,15.03,120.69,26.0,2.1
516,Poconé,0,BR,1593867042,50,-16.26,-56.62,25.06,1.57
517,Skerries,75,IE,1593867043,93,53.58,-6.11,17.78,3.6
518,Ulladulla,0,AU,1593867043,61,-35.35,150.47,10.56,8.7
519,Bontang,81,ID,1593867044,82,0.13,117.5,25.24,0.66
520,Kirakira,13,SB,1593867044,83,-10.45,161.92,25.67,3.35
521,Novocheremshansk,1,RU,1593867045,65,54.36,50.17,27.76,3.62
522,Poronaysk,56,RU,1593867045,82,49.22,143.12,14.83,2.52
523,Luganville,75,VU,1593867045,83,-15.53,167.17,25.0,1.0
524,Bilibino,99,RU,1593867046,65,68.05,166.44,9.26,1.68
525,Beidao,98,CN,1593867046,43,34.57,105.89,23.67,1.6
526,San Miguel de Tucumán,78,AR,1593867047,75,-26.82,-65.22,8.0,6.2
527,Greenlaw,75,GB,1593867047,90,55.71,-2.46,15.0,0.45
528,Bairiki Village,75,KI,1593867047,94,1.33,172.98,26.0,1.0
529,Sibut,82,CF,1593867044,84,5.72,19.07,26.52,1.75
530,Sarangani,6,PH,1593867048,68,5.4,125.46,29.12,3.11
531,Akdepe,0,TM,1593867049,16,42.06,59.38,35.0,4.1
532,Aleksandrovskoye,10,RU,1593867049,24,44.71,43.0,34.0,5.0
533,Amoy,20,CN,1593866822,79,24.48,118.08,30.0,5.0
534,Andros Town,40,BS,1593867050,79,24.7,-77.77,29.0,1.0
535,Payson,1,US,1593866892,63,40.04,-111.73,17.22,2.77
536,Rodrigues Alves,73,BR,1593867051,96,-7.74,-72.65,23.06,0.31
537,Santa Rosa,75,PH,1593867052,88,14.31,121.11,27.0,1.0
538,Korla,100,CN,1593867052,12,41.76,86.15,33.56,2.0
539,Scarborough,100,GB,1593867053,80,54.28,-0.4,18.89,1.79
540,Botad,100,IN,1593867053,50,22.17,71.67,35.44,2.12
541,Sola,75,VU,1593867054,94,-13.88,167.55,26.0,3.1
542,Mogadishu,75,SO,1593867054,62,2.04,45.34,29.0,8.2
543,Sobolevo,100,RU,1593867055,75,54.43,31.9,23.19,3.52
544,Broken Hill,90,AU,1593867055,70,-31.95,141.43,9.0,2.6
545,Coahuayana Viejo,86,MX,1593867055,81,18.73,-103.68,24.41,1.54
546,Brownsville,1,US,1593867021,94,25.9,-97.5,26.11,2.1
547,Asău,100,RO,1593867056,86,46.43,26.4,19.44,1.81
548,Duku,89,NG,1593867057,58,11.24,4.91,30.86,3.25
549,Agirish,99,RU,1593867057,42,61.92,63.02,23.35,1.87
550,Devonport,100,AU,1593867058,65,-41.17,146.35,10.56,2.24
551,Kholtoson,67,RU,1593867058,77,50.3,103.31,15.57,1.3
552,Stabat,40,ID,1593867058,88,3.76,98.45,28.0,2.6
553,The Valley,40,AI,1593867059,69,18.22,-63.06,29.44,6.7
554,Bagan,69,RU,1593867059,82,54.1,77.66,20.58,3.41
555,Iqaluit,20,CA,1593867060,71,63.75,-68.51,13.0,5.7
556,Jalu,0,LY,1593867061,15,29.03,21.55,37.93,3.14
557,Irondequoit,20,US,1593867061,88,43.21,-77.58,23.89,2.1
558,Gbadolite,65,CD,1593867062,67,4.28,21.02,28.79,0.97
559,Hay River,75,CA,1593867062,93,60.82,-115.8,12.0,2.1
560,Oga,20,IT,1593867063,40,46.46,10.35,25.0,2.1
561,Huarmey,28,PE,1593867063,75,-10.07,-78.15,17.15,2.67
562,Dukat,3,RU,1593867064,83,62.55,155.55,4.8,1.32
563,Oistins,20,BB,1593867064,66,13.07,-59.53,29.0,9.8
564,Ossora,100,RU,1593867064,70,59.24,163.07,10.39,5.25
565,Três Lagoas,1,BR,1593867065,52,-20.75,-51.68,20.47,3.46
566,Guerrero Negro,0,MX,1593867065,81,27.98,-114.06,19.38,3.9
567,Talara,97,PE,1593867066,76,-4.58,-81.27,19.28,5.57
568,Yangi Marg`ilon,20,UZ,1593867066,14,40.43,71.72,31.0,4.1
569,Marystown,100,CA,1593867066,73,47.17,-55.15,10.88,5.16
570,Seydi,0,TM,1593867067,13,39.48,62.91,34.24,10.36
571,Pringsewu,77,ID,1593867068,92,-5.36,104.97,23.86,0.95
572,Onoda,75,JP,1593866985,83,34.0,131.18,23.0,1.5
573,Tahoua,99,NE,1593867047,49,14.89,5.27,32.0,12.9
574,Artyom,0,AZ,1593867070,26,40.47,50.33,33.0,5.1
575,Taungdwingyi,100,MM,1593867070,91,20.02,95.55,25.27,5.48
576,Bedēsa,67,ET,1593867071,47,8.9,40.78,26.16,0.93
